Resort Name,72 Hour Snowfall,Base Depth,Trails open,Open lifts,state,summit,base,vertical,lifts,runs,acres,green_percent,green_acres,blue_percent,blue_acres,black_percent,black_acres,lat,lon
Brian Head,"21""","80""Machine Groomed",72,8/8,Utah,10929.0,9600.0,1329.0,9.0,71.0,650,0.3,195.0,0.35,227.5,0.35,227.5,37.69,-112.86
Snowbird,"19""","151""Packed Powder",136,12/12,Utah,11000.0,7600.0,3400.0,12.0,89.0,2500,0.27,675.0,0.38,950.0,0.35,875.0,40.58,-111.65
Diamond Peak,"17""","65-90""Machine Groomed",40,5/7,Nevada,8540.0,6700.0,1840.0,6.0,31.0,655,0.18,117.9,0.46,301.3,0.36,235.8,39.58,-115.81
White Pine,"15""","36""Packed Powder",29,2/2,Wyoming,9500.0,8400.0,1100.0,2.0,25.0,370,0.25,92.5,0.45,166.5,0.3,111.0,43.7,-121.59
Jackson Hole,"14""","34-114""Variable Conditions",123,13/13,Wyoming,10450.0,6311.0,4139.0,12.0,116.0,2500,0.1,250.0,0.4,1000.0,0.5,1250.0,43.4799,-110.0
Alta,"11""","177""",99,5/5,Utah,10550.0,8530.0,2020.0,11.0,116.0,2200,0.25,550.0,0.4,880.0,0.35,770.0,40.6,-111.64
Solitude,"10""","117""Packed Powder",-,8/8,Utah,10035.0,7988.0,2047.0,7.0,65.0,1200,0.2,240.0,0.5,600.0,0.3,360.0,40.63,-111.59
