Resort Name,72 Hour Snowfall,Base Depth,Trails open,Open lifts,state,summit,base,vertical,lifts,runs,acres,green_percent,green_acres,blue_percent,blue_acres,black_percent,black_acres,lat,lon
Lookout Pass,"23""","18-53""Powder",49,4/5,Idaho,5650.0,4500.0,1150.0,4.0,34.0,540,0.2,108.0,0.5,270.0,0.3,162.0,47.47,-115.69
Mt. Baker,"16""","70-90""Variable Conditions",36,7/10,Washington,5050.0,3500.0,1500.0,10.0,38.0,1000,0.24,240.0,0.45,450.0,0.31,310.0,48.78,-121.81
Mt. Hood Meadows,"16""","104-147""Powder",50,7/12,Oregon,7300.0,4523.0,2777.0,13.0,85.0,2150,0.15,322.5,0.5,1075.0,0.35,752.5,45.33,-121.66
White Pass,"16""","70-93""Powder",40,8/8,Washington,6550.0,4500.0,2050.0,8.0,47.0,1402,0.15,210.3,0.65,911.3,0.2,280.4,46.64,-121.39
Stevens Pass,"15""","60""Powder",52,12/12,Washington,5845.0,4601.0,1800.0,10.0,37.0,1125,0.11,123.75,0.54,607.5,0.35,393.75,47.75,-121.09
Mt. Hood Skibowl,"12""","38-51""Variable Conditions",0,6/10,Oregon,5027.0,3600.0,1500.0,9.0,65.0,960,0.2,192.0,0.4,384.0,0.4,384.0,45.37,-121.7
Mission Ridge,"11""","35-38""Powder",53,7/7,Washington,6820.0,4570.0,2250.0,6.0,36.0,2000,0.1,200.0,0.6,1200.0,0.3,600.0,47.34,-120.47
