Resort Name,72 Hour Snowfall,Base Depth,Trails open,Open lifts,state,summit,base,vertical,lifts,runs,acres,green_percent,green_acres,blue_percent,blue_acres,black_percent,black_acres,lat,lon
Loveland,"10""","67""Powder",86,7/10,Colorado,13010.0,10800.0,2210.0,10.0,93.0,1800,0.13,234.0,0.41,738.0,0.46,828.0,40.41,-105.08
Lookout Pass,"5""","17-67""Machine Groomed",43,3/5,Idaho,5650.0,4500.0,1150.0,4.0,34.0,540,0.2,108.0,0.5,270.0,0.3,162.0,47.47,-115.69
Winter Park,"4""","78-79""",126,14/25,Colorado,12060.0,9000.0,3060.0,24.0,142.0,3078,0.08,246.24,0.37,1138.86,0.55,1692.9,39.88,-105.75
Steamboat,"3""","61-111""Packed Powder",136,12/23,Colorado,10568.0,6900.0,3668.0,18.0,165.0,2965,0.14,415.1,0.42,1245.3,0.44,1304.6,40.8,-106.95
Arapahoe Basin,"3""","67""Spring Snow",116,9/9,Colorado,13050.0,10780.0,2270.0,7.0,105.0,900,0.1,90.0,0.3,270.0,0.6,540.0,39.72,-104.79
Eldora,"3""","40""Packed Powder",60,3/10,Colorado,10800.0,9200.0,1600.0,12.0,53.0,680,0.2,136.0,0.5,340.0,0.3,204.0,39.94,-105.56
Bear Valley,"2""","125-145""Variable Conditions",50,6/10,California,8500.0,6600.0,1900.0,9.0,75.0,1680,0.25,420.0,0.4,672.0,0.35,588.0,39.2,-122.44
