Resort Name,72 Hour Snowfall,Base Depth,Trails open,Open lifts,state,summit,base,vertical,lifts,runs,acres,green_percent,green_acres,blue_percent,blue_acres,black_percent,black_acres,lat,lon
Copper,"20""","70-86""Packed Powder",105,12/24,Colorado,12313.0,9712.0,2601.0,22.0,127.0,2465,0.21,517.65,0.25,616.25,0.54,1331.1,39.46,-106.17
Loveland,"17""","69""Powder",86,7/10,Colorado,13010.0,10800.0,2210.0,10.0,93.0,1800,0.13,234.0,0.41,738.0,0.46,828.0,40.41,-105.08
Arapahoe Basin,"16""","67""Spring Snow",116,9/9,Colorado,13050.0,10780.0,2270.0,7.0,105.0,900,0.1,90.0,0.3,270.0,0.6,540.0,39.72,-104.79
Big Sky,"14""","38-58""Packed Powder",100,17/36,Montana,11166.0,6800.0,4350.0,34.0,306.0,5800,0.15,870.0,0.25,1450.0,0.6,3480.0,45.29,-111.38
Steamboat,"12""","63-109""Packed Powder",136,12/23,Colorado,10568.0,6900.0,3668.0,18.0,165.0,2965,0.14,415.1,0.42,1245.3,0.44,1304.6,40.8,-106.95
Grand Targhee,"10""","117""Packed Powder",87,6/6,Wyoming,10000.0,7408.0,2419.0,5.0,72.0,3000,0.1,300.0,0.7,2100.0,0.2,600.0,43.74,-110.4
Breckenridge,"9""","61-74""Powder",106,8/35,Colorado,12998.0,9600.0,3398.0,31.0,155.0,2358,0.14,330.12,0.31,730.98,0.55,1296.9,39.49,-106.03
Eldora,"8""","40""Packed Powder",60,3/10,Colorado,10800.0,9200.0,1600.0,12.0,53.0,680,0.2,136.0,0.5,340.0,0.3,204.0,39.94,-105.56
Bear Valley,"4""","125-145""Variable Conditions",50,6/10,California,8500.0,6600.0,1900.0,9.0,75.0,1680,0.25,420.0,0.4,672.0,0.35,588.0,39.2,-122.44
