Resort Name,72 Hour Snowfall,Base Depth,Trails open,Open lifts,state,summit,base,vertical,lifts,runs,acres,green_percent,green_acres,blue_percent,blue_acres,black_percent,black_acres,lat,lon
Alyeska,"39""","38-117""Powder",65,7/7,Alaska,3939.0,250.0,2500.0,9.0,73.0,1500,0.11,165.0,0.52,780.0,0.37,555.0,60.97,-149.11
Beaver,"20""","85""",48,6/6,Utah,8800.0,7100.0,1700.0,5.0,47.0,828,0.25,207.0,0.4,331.2,0.35,289.8,41.97,-111.57
Brighton,"19""","117""",61,8/8,Utah,10500.0,8755.0,1745.0,5.0,66.0,1050,0.21,220.5,0.4,420.0,0.39,409.5,40.6,-111.58
Snowbird,"19""",--,123,12/12,Utah,11000.0,7600.0,3400.0,12.0,89.0,2500,0.27,675.0,0.38,950.0,0.35,875.0,40.58,-111.65
Steamboat,"19""","73-112""Powder",181,22/23,Colorado,10568.0,6900.0,3668.0,18.0,165.0,2965,0.14,415.1,0.42,1245.3,0.44,1304.6,40.8,-106.95
Alta,"17""","149""",108,5/5,Utah,10550.0,8530.0,2020.0,11.0,116.0,2200,0.25,550.0,0.4,880.0,0.35,770.0,40.6,-111.64
Solitude,"17""",--,70,8/8,Utah,10035.0,7988.0,2047.0,7.0,65.0,1200,0.2,240.0,0.5,600.0,0.3,360.0,40.63,-111.59
Powder,"14""","101""",165,9/9,Utah,9105.0,6900.0,2205.0,7.0,135.0,2800,0.25,700.0,0.4,1120.0,0.35,980.0,40.15,-112.18
Brian Head,"12""","59""Packed Powder",72,8/8,Utah,10929.0,9600.0,1329.0,9.0,71.0,650,0.3,195.0,0.35,227.5,0.35,227.5,37.69,-112.86
