Resort Name,72 Hour Snowfall,Base Depth,Trails open,Open lifts,state,summit,base,vertical,lifts,runs,acres,green_percent,green_acres,blue_percent,blue_acres,black_percent,black_acres,lat,lon
Mt. Baker,"43""","130-150""Powder",36,7/10,Washington,5050.0,3500.0,1500.0,10.0,38.0,1000,0.24,240.0,0.45,450.0,0.31,310.0,48.78,-121.81
Killington,"27""","17-24""Powder",149,13/22,Vermont,4241.0,1165.0,3050.0,22.0,140.0,752,0.28,210.56,0.33,248.16,0.39,293.28,43.67,-72.78
Bolton Valley,"24""","24-36""Powder",65,5/6,Vermont,3150.0,2100.0,1704.0,6.0,71.0,165,0.32,52.8,0.36,59.4,0.32,52.8,44.42,-72.85
Mad River Glen,"23""","8-18""Packed Powder",54,3/5,Vermont,3637.0,1600.0,2037.0,5.0,45.0,915,0.3,274.5,0.3,274.5,0.4,366.0,44.57,-72.57
Jay Peak,"22""","18-40""Powder",81,8/9,Vermont,3968.0,1815.0,2153.0,9.0,78.0,385,0.2,77.0,0.4,154.0,0.4,154.0,44.97,-72.47
Lookout Pass,"20""","22-72""Packed Powder",49,4/5,Idaho,5650.0,4500.0,1150.0,4.0,34.0,540,0.2,108.0,0.5,270.0,0.3,162.0,47.47,-115.69
Mt. Hood Meadows,"17""","124-174""Packed Powder",50,5/12,Oregon,7300.0,4523.0,2777.0,13.0,85.0,2150,0.15,322.5,0.5,1075.0,0.35,752.5,45.33,-121.66
