Resort Name,72 Hour Snowfall,Base Depth,Trails open,Open lifts,state,summit,base,vertical,lifts,runs,acres,green_percent,green_acres,blue_percent,blue_acres,black_percent,black_acres,lat,lon
Bridger Bowl,"12""","54""Variable Conditions",105,8/11,Montana,8800.0,6100.0,2700.0,8.0,71.0,2000,0.2,400.0,0.3,600.0,0.5,1000.0,45.83,-110.89
Jackson Hole,"8""","29-108""Variable Conditions",114,13/13,Wyoming,10450.0,6311.0,4139.0,12.0,116.0,2500,0.1,250.0,0.4,1000.0,0.5,1250.0,43.4799,-110.0
Big Sky,"8""","38-56""Packed Powder",219,25/36,Montana,11166.0,6800.0,4350.0,34.0,306.0,5800,0.15,870.0,0.25,1450.0,0.6,3480.0,45.29,-111.38
Winter Park,"8""","79-80""",142,17/25,Colorado,12060.0,9000.0,3060.0,24.0,142.0,3078,0.08,246.24,0.37,1138.86,0.55,1692.9,39.88,-105.75
Grand Targhee,"6""","127""Powder",88,6/6,Wyoming,10000.0,7408.0,2419.0,5.0,72.0,3000,0.1,300.0,0.7,2100.0,0.2,600.0,43.74,-110.4
Brighton,"6""","123""",61,8/8,Utah,10500.0,8755.0,1745.0,5.0,66.0,1050,0.21,220.5,0.4,420.0,0.39,409.5,40.6,-111.58
White Pass,"5""","102""Variable Conditions",40,8/8,Washington,6550.0,4500.0,2050.0,8.0,47.0,1402,0.15,210.3,0.65,911.3,0.2,280.4,46.64,-121.39
Lookout Pass,"5""","19-69""Machine Groomed",47,4/5,Idaho,5650.0,4500.0,1150.0,4.0,34.0,540,0.2,108.0,0.5,270.0,0.3,162.0,47.47,-115.69
