Resort Name,72 Hour Snowfall,Base Depth,Trails open,Open lifts,state,summit,base,vertical,lifts,runs,acres,green_percent,green_acres,blue_percent,blue_acres,black_percent,black_acres,lat,lon
Alyeska,"21""","43-151""Packed Powder",70,7/7,Alaska,3939.0,250.0,2500.0,9.0,73.0,1500,0.11,165.0,0.52,780.0,0.37,555.0,60.97,-149.11
Snowbird,"19""","148""Packed Powder",123,12/12,Utah,11000.0,7600.0,3400.0,12.0,89.0,2500,0.27,675.0,0.38,950.0,0.35,875.0,40.58,-111.65
White Pine,"12""","36""Packed Powder",-,,Wyoming,9500.0,8400.0,1100.0,2.0,25.0,370,0.25,92.5,0.45,166.5,0.3,111.0,43.7,-121.59
Alta,"11""","173""",94,5/5,Utah,10550.0,8530.0,2020.0,11.0,116.0,2200,0.25,550.0,0.4,880.0,0.35,770.0,40.6,-111.64
Solitude,"10""","113""Variable Conditions",84,8/8,Utah,10035.0,7988.0,2047.0,7.0,65.0,1200,0.2,240.0,0.5,600.0,0.3,360.0,40.63,-111.59
Jackson Hole,"9""","33-111""Spring Snow",123,13/13,Wyoming,10450.0,6311.0,4139.0,12.0,116.0,2500,0.1,250.0,0.4,1000.0,0.5,1250.0,43.4799,-110.0
Grand Targhee,"9""","127""Packed Powder",91,6/6,Wyoming,10000.0,7408.0,2419.0,5.0,72.0,3000,0.1,300.0,0.7,2100.0,0.2,600.0,43.74,-110.4
