Resort Name,72 Hour Snowfall,Base Depth,Trails open,Open lifts,state,summit,base,vertical,lifts,runs,acres,green_percent,green_acres,blue_percent,blue_acres,black_percent,black_acres,lat,lon
Alyeska,"5""","51-152""Packed Powder",72,7/7,Alaska,3939.0,250.0,2500.0,9.0,73.0,1500,0.11,165.0,0.52,780.0,0.37,555.0,60.97,-149.11
Dodge Ridge,"3""","52-110""Powder",71,8/10,California,8200.0,6600.0,1600.0,12.0,67.0,852,0.2,170.4,0.4,340.8,0.4,340.8,38.14,-120.03
Killington,"2""","17-25""Spring Snow",123,10/22,Vermont,4241.0,1165.0,3050.0,22.0,140.0,752,0.28,210.56,0.33,248.16,0.39,293.28,43.67,-72.78
Sugarbush,"2""","16-40""Wet Snow",13,1/16,Vermont,4083.0,1483.0,2600.0,16.0,111.0,578,0.2,115.6,0.45,260.1,0.35,202.3,44.12,-72.83
Sugar Bowl,"1""","72-151""Spring Snow",105,10/12,California,8383.0,6883.0,1500.0,13.0,103.0,1650,0.17,280.5,0.45,742.5,0.38,627.0,39.27,-120.3
Mt. Baker,"1""","94-114""Machine Groomed",36,7/10,Washington,5050.0,3500.0,1500.0,10.0,38.0,1000,0.24,240.0,0.45,450.0,0.31,310.0,48.78,-121.81
Mammoth,"1""","99-150""Corn Snow",173,24/25,California,11053.0,7953.0,3100.0,28.0,150.0,3500,0.25,875.0,0.4,1400.0,0.35,1225.0,37.64,-118.97
