Resort Name,72 Hour Snowfall,Base Depth,Trails open,Open lifts,state,summit,base,vertical,lifts,runs,acres,green_percent,green_acres,blue_percent,blue_acres,black_percent,black_acres,lat,lon
Diamond Peak,"26""","65-90""Powder",40,5/7,Nevada,8540.0,6700.0,1840.0,6.0,31.0,655,0.18,117.9,0.46,301.3,0.36,235.8,39.58,-115.81
Mammoth,"24""","117-175""Powder",173,21/25,California,11053.0,7953.0,3100.0,28.0,150.0,3500,0.25,875.0,0.4,1400.0,0.35,1225.0,37.64,-118.97
Solitude,"23""","119""Powder",-,8/8,Utah,10035.0,7988.0,2047.0,7.0,65.0,1200,0.2,240.0,0.5,600.0,0.3,360.0,40.63,-111.59
Homewood,"21""","43-85""Powder",66,6/8,California,7800.0,6230.0,1570.0,8.0,64.0,1260,0.15,189.0,0.5,630.0,0.35,441.0,39.08,-120.17
Snowbird,"21""","152""Packed Powder",115,12/12,Utah,11000.0,7600.0,3400.0,12.0,89.0,2500,0.27,675.0,0.38,950.0,0.35,875.0,40.58,-111.65
Brighton,"21""","132""",61,8/8,Utah,10500.0,8755.0,1745.0,5.0,66.0,1050,0.21,220.5,0.4,420.0,0.39,409.5,40.6,-111.58
Dodge Ridge,"19""","52-110""Powder",71,8/10,California,8200.0,6600.0,1600.0,12.0,67.0,852,0.2,170.4,0.4,340.8,0.4,340.8,38.14,-120.03
Kirkwood,"18""","118-132""Powder",84,12/13,California,9800.0,7800.0,2000.0,15.0,81.0,2300,0.15,345.0,0.5,1150.0,0.35,805.0,38.684,-120.068
Brian Head,"17""","81""Machine Groomed",72,8/8,Utah,10929.0,9600.0,1329.0,9.0,71.0,650,0.3,195.0,0.35,227.5,0.35,227.5,37.69,-112.86
