Resort Name,72 Hour Snowfall,Base Depth,Trails open,Open lifts,state,summit,base,vertical,lifts,runs,acres,green_percent,green_acres,blue_percent,blue_acres,black_percent,black_acres,lat,lon
Winter Park,"4""","76-78""Spring Snow",77,6/25,Colorado,12060.0,9000.0,3060.0,24.0,142.0,3078,0.08,246.24,0.37,1138.86,0.55,1692.9,39.88,-105.75
Loveland,"3""","65""Packed Powder",86,7/10,Colorado,13010.0,10800.0,2210.0,10.0,93.0,1800,0.13,234.0,0.41,738.0,0.46,828.0,40.41,-105.08
Alyeska,"3""","39-146""Packed Powder",72,7/7,Alaska,3939.0,250.0,2500.0,9.0,73.0,1500,0.11,165.0,0.52,780.0,0.37,555.0,60.97,-149.11
Arapahoe Basin,"2""","63""Spring Snow",115,9/9,Colorado,13050.0,10780.0,2270.0,7.0,105.0,900,0.1,90.0,0.3,270.0,0.6,540.0,39.72,-104.79
Breckenridge,"2""","67""Variable Conditions",95,7/35,Colorado,12998.0,9600.0,3398.0,31.0,155.0,2358,0.14,330.12,0.31,730.98,0.55,1296.9,39.49,-106.03
Copper,"1""","57""Machine Groomed",108,11/24,Colorado,12313.0,9712.0,2601.0,22.0,127.0,2465,0.21,517.65,0.25,616.25,0.54,1331.1,39.46,-106.17
