Resort Name,72 Hour Snowfall,Base Depth,Trails open,Open lifts,state,summit,base,vertical,lifts,runs,acres,green_percent,green_acres,blue_percent,blue_acres,black_percent,black_acres,lat,lon
Mt. Baker,"36""","118-138""Powder",36,7/10,Washington,5050.0,3500.0,1500.0,10.0,38.0,1000,0.24,240.0,0.45,450.0,0.31,310.0,48.78,-121.81
White Pass,"30""","80-113""Powder",40,8/8,Washington,6550.0,4500.0,2050.0,8.0,47.0,1402,0.15,210.3,0.65,911.3,0.2,280.4,46.64,-121.39
Lookout Pass,"23""","19-59""Packed Powder",49,4/5,Idaho,5650.0,4500.0,1150.0,4.0,34.0,540,0.2,108.0,0.5,270.0,0.3,162.0,47.47,-115.69
Mt. Hood Meadows,"23""","135-184""Powder",50,8/12,Oregon,7300.0,4523.0,2777.0,13.0,85.0,2150,0.15,322.5,0.5,1075.0,0.35,752.5,45.33,-121.66
Sugar Bowl,"20""","67-124""Packed Powder",80,10/12,California,8383.0,6883.0,1500.0,13.0,103.0,1650,0.17,280.5,0.45,742.5,0.38,627.0,39.27,-120.3
Stevens Pass,"20""","73""Powder",52,12/12,Washington,5845.0,4601.0,1800.0,10.0,37.0,1125,0.11,123.75,0.54,607.5,0.35,393.75,47.75,-121.09
