Resort Name,72 Hour Snowfall,Base Depth,Trails open,Open lifts,state,summit,base,vertical,lifts,runs,acres,green_percent,green_acres,blue_percent,blue_acres,black_percent,black_acres,lat,lon
Alyeska,"24""","50-110""Powder",60,7/7,Alaska,3939.0,250.0,2500.0,9.0,73.0,1500,0.11,165.0,0.52,780.0,0.37,555.0,60.97,-149.11
Ski Apache,"14""","20""Variable Conditions",51,6/11,New Mexico,12000.0,10100.0,1900.0,11.0,55.0,750,0.2,150.0,0.6,450.0,0.2,150.0,33.4,-105.78
Sunrise Park,"12""","72-78""Powder",50,8/8,Arizona ,1100.0,9200.0,1800.0,8.0,65.0,800,0.4,320.0,0.4,320.0,0.2,160.0,34.02,-109.53
Sandia Peak,"11""","6""Variable Conditions",35,1/4,New Mexico,10378.0,8678.0,1700.0,6.0,30.0,200,0.35,70.0,0.55,110.0,0.1,20.0,35.21,-106.45
Brian Head,"10""","69""Packed Powder",72,8/8,Utah,10929.0,9600.0,1329.0,9.0,71.0,650,0.3,195.0,0.35,227.5,0.35,227.5,37.69,-112.86
Bridger Bowl,"10""",--,83,11/11,Montana,8800.0,6100.0,2700.0,8.0,71.0,2000,0.2,400.0,0.3,600.0,0.5,1000.0,45.83,-110.89
Eaglecrest,"8""","43-141""Variable Conditions",0,,Alaska,2600.0,1200.0,1540.0,4.0,31.0,640,0.2,128.0,0.4,256.0,0.4,256.0,58.3,-134.55
Pajarito,"8""","34""-",--,,New Mexico,10440.0,9000.0,1200.0,6.0,40.0,300,0.2,60.0,0.5,150.0,0.3,90.0,35.91,-106.14
Lookout Pass,"8""","13-43""Machine Groomed",45,4/5,Idaho,5650.0,4500.0,1150.0,4.0,34.0,540,0.2,108.0,0.5,270.0,0.3,162.0,47.47,-115.69
