Resort Name,72 Hour Snowfall,Base Depth,Trails open,Open lifts,state,summit,base,vertical,lifts,runs,acres,green_percent,green_acres,blue_percent,blue_acres,black_percent,black_acres,lat,lon
Mt. Baker,"43""","130-150""Powder",36,7/10,Washington,5050.0,3500.0,1500.0,10.0,38.0,1000,0.24,240.0,0.45,450.0,0.31,310.0,48.78,-121.81
Alyeska,"37""","65-135""Powder",70,7/7,Alaska,3939.0,250.0,2500.0,9.0,73.0,1500,0.11,165.0,0.52,780.0,0.37,555.0,60.97,-149.11
Killington,"27""","17-24""Powder",149,13/22,Vermont,4241.0,1165.0,3050.0,22.0,140.0,752,0.28,210.56,0.33,248.16,0.39,293.28,43.67,-72.78
Bolton Valley,"24""","24-36""Powder",65,5/6,Vermont,3150.0,2100.0,1704.0,6.0,71.0,165,0.32,52.8,0.36,59.4,0.32,52.8,44.42,-72.85
Mad River Glen,"23""","8-18""Packed Powder",54,3/5,Vermont,3637.0,1600.0,2037.0,5.0,45.0,915,0.3,274.5,0.3,274.5,0.4,366.0,44.57,-72.57
Jay Peak,"22""","18-40""Powder",81,8/9,Vermont,3968.0,1815.0,2153.0,9.0,78.0,385,0.2,77.0,0.4,154.0,0.4,154.0,44.97,-72.47
Attitash,"20""","28""Packed Powder",44,6/8,New Hampshire ,2350.0,600.0,1750.0,11.0,76.0,310,0.2,62.0,0.47,145.7,0.33,102.3,44.09,-71.21
