Resort Name,72 Hour Snowfall,Base Depth,Trails open,Open lifts,state,summit,base,vertical,lifts,runs,acres,green_percent,green_acres,blue_percent,blue_acres,black_percent,black_acres,lat,lon
Winter Park,"12""","84-88""",126,14/25,Colorado,12060.0,9000.0,3060.0,24.0,142.0,3078,0.08,246.24,0.37,1138.86,0.55,1692.9,39.88,-105.75
Loveland,"10""","69""Powder",86,7/10,Colorado,13010.0,10800.0,2210.0,10.0,93.0,1800,0.13,234.0,0.41,738.0,0.46,828.0,40.41,-105.08
Eldora,"9""","40""Packed Powder",60,3/10,Colorado,10800.0,9200.0,1600.0,12.0,53.0,680,0.2,136.0,0.5,340.0,0.3,204.0,39.94,-105.56
Vail,"3""","60""Machine Groomed",152,10/33,Colorado,11570.0,8120.0,3450.0,31.0,193.0,5289,0.18,952.02,0.29,1533.81,0.53,2803.17,39.64,-106.36
Copper,"3""","60-71""Packed Powder",119,12/24,Colorado,12313.0,9712.0,2601.0,22.0,127.0,2465,0.21,517.65,0.25,616.25,0.54,1331.1,39.46,-106.17
Breckenridge,"2""","71""Variable Conditions",105,16/35,Colorado,12998.0,9600.0,3398.0,31.0,155.0,2358,0.14,330.12,0.31,730.98,0.55,1296.9,39.49,-106.03
Mt. Hood Meadows,"1""","105-145""Spring Snow",80,8/12,Oregon,7300.0,4523.0,2777.0,13.0,85.0,2150,0.15,322.5,0.5,1075.0,0.35,752.5,45.33,-121.66
