Resort Name,72 Hour Snowfall,Base Depth,Trails open,Open lifts,state,summit,base,vertical,lifts,runs,acres,green_percent,green_acres,blue_percent,blue_acres,black_percent,black_acres,lat,lon
Breckenridge,"11""","83""Variable Conditions",75,5/35,Colorado,12998.0,9600.0,3398.0,31.0,155.0,2358,0.14,330.12,0.31,730.98,0.55,1296.9,39.49,-106.03
Loveland,"8""","68""Wet Snow",86,7/10,Colorado,13010.0,10800.0,2210.0,10.0,93.0,1800,0.13,234.0,0.41,738.0,0.46,828.0,40.41,-105.08
Copper,"6""","70""Powder",15,2/24,Colorado,12313.0,9712.0,2601.0,22.0,127.0,2465,0.21,517.65,0.25,616.25,0.54,1331.1,39.46,-106.17
Arapahoe Basin,"2""","65""Spring Snow",114,9/9,Colorado,13050.0,10780.0,2270.0,7.0,105.0,900,0.1,90.0,0.3,270.0,0.6,540.0,39.72,-104.79
Winter Park,"1""","69-77""Spring Snow",73,6/25,Colorado,12060.0,9000.0,3060.0,24.0,142.0,3078,0.08,246.24,0.37,1138.86,0.55,1692.9,39.88,-105.75
Snowbird,"1""","116""Packed Powder",53,5/12,Utah,11000.0,7600.0,3400.0,12.0,89.0,2500,0.27,675.0,0.38,950.0,0.35,875.0,40.58,-111.65
