Resort Name,72 Hour Snowfall,Base Depth,Trails open,Open lifts,state,summit,base,vertical,lifts,runs,acres,green_percent,green_acres,blue_percent,blue_acres,black_percent,black_acres,lat,lon
Stevens Pass,"43""","76""Powder",52,12/12,Washington,5845.0,4601.0,1800.0,10.0,37.0,1125,0.11,123.75,0.54,607.5,0.35,393.75,47.75,-121.09
Mt. Hood Meadows,"42""","104-147""Powder",50,7/12,Oregon,7300.0,4523.0,2777.0,13.0,85.0,2150,0.15,322.5,0.5,1075.0,0.35,752.5,45.33,-121.66
White Pass,"31""","70-100""Powder",40,8/8,Washington,6550.0,4500.0,2050.0,8.0,47.0,1402,0.15,210.3,0.65,911.3,0.2,280.4,46.64,-121.39
Mt. Hood Skibowl,"30""","44-63""Powder",0,6/10,Oregon,5027.0,3600.0,1500.0,9.0,65.0,960,0.2,192.0,0.4,384.0,0.4,384.0,45.37,-121.7
Mt. Baker,"28""","81-100""Powder",36,7/10,Washington,5050.0,3500.0,1500.0,10.0,38.0,1000,0.24,240.0,0.45,450.0,0.31,310.0,48.78,-121.81
The Summit at Snoqualmie,"26""","70""Powder",27,5/20,Washington,5420.0,2610.0,2280.0,25.0,96.0,1981,0.14,277.34,0.45,891.45,0.41,812.21,47.75,-120.74
Grand Targhee,"26""","118""Powder",87,6/6,Wyoming,10000.0,7408.0,2419.0,5.0,72.0,3000,0.1,300.0,0.7,2100.0,0.2,600.0,43.74,-110.4
Lookout Pass,"23""","19-59""Packed Powder",49,4/5,Idaho,5650.0,4500.0,1150.0,4.0,34.0,540,0.2,108.0,0.5,270.0,0.3,162.0,47.47,-115.69
Jackson Hole,"20""","30-99""Powder",129,13/13,Wyoming,10450.0,6311.0,4139.0,12.0,116.0,2500,0.1,250.0,0.4,1000.0,0.5,1250.0,43.4799,-110.0
