Resort Name,72 Hour Snowfall,Base Depth,Trails open,Open lifts,state,summit,base,vertical,lifts,runs,acres,green_percent,green_acres,blue_percent,blue_acres,black_percent,black_acres,lat,lon
Attitash,"20""","18""Powder",49,5/8,New Hampshire ,2350.0,600.0,1750.0,11.0,76.0,310,0.2,62.0,0.47,145.7,0.33,102.3,44.09,-71.21
Mt. Baker,"16""","115-135""Powder",36,9/10,Washington,5050.0,3500.0,1500.0,10.0,38.0,1000,0.24,240.0,0.45,450.0,0.31,310.0,48.78,-121.81
Sugarbush,"16""","16-40""Powder",100,7/16,Vermont,4083.0,1483.0,2600.0,16.0,111.0,578,0.2,115.6,0.45,260.1,0.35,202.3,44.12,-72.83
Ski Santa Fe,"15""","70""Machine Groomed",86,7/7,New Mexico,12075.0,10350.0,1725.0,7.0,74.0,660,0.2,132.0,0.4,264.0,0.4,264.0,35.72,-105.89
Pajarito,"14""","34""Packed Powder",45,3/6,New Mexico,10440.0,9000.0,1200.0,6.0,40.0,300,0.2,60.0,0.5,150.0,0.3,90.0,35.91,-106.14
Mad River Glen,"12""","8-18""Powder",58,4/5,Vermont,3637.0,1600.0,2037.0,5.0,45.0,915,0.3,274.5,0.3,274.5,0.4,366.0,44.57,-72.57
Killington,"12""","15-20""Powder",130,14/22,Vermont,4241.0,1165.0,3050.0,22.0,140.0,752,0.28,210.56,0.33,248.16,0.39,293.28,43.67,-72.78
Bolton Valley,"12""","24-36""Machine Groomed",70,6/6,Vermont,3150.0,2100.0,1704.0,6.0,71.0,165,0.32,52.8,0.36,59.4,0.32,52.8,44.42,-72.85
Jay Peak,"10""","15-35""Packed Powder",64,9/9,Vermont,3968.0,1815.0,2153.0,9.0,78.0,385,0.2,77.0,0.4,154.0,0.4,154.0,44.97,-72.47
