Resort Name,72 Hour Snowfall,Base Depth,Trails open,Open lifts,state,summit,base,vertical,lifts,runs,acres,green_percent,green_acres,blue_percent,blue_acres,black_percent,black_acres,lat,lon
Winter Park,"18""","83-87""",126,14/25,Colorado,12060.0,9000.0,3060.0,24.0,142.0,3078,0.08,246.24,0.37,1138.86,0.55,1692.9,39.88,-105.75
Eldora,"10""","40""Packed Powder",60,3/10,Colorado,10800.0,9200.0,1600.0,12.0,53.0,680,0.2,136.0,0.5,340.0,0.3,204.0,39.94,-105.56
Loveland,"7""","67""Powder",86,7/10,Colorado,13010.0,10800.0,2210.0,10.0,93.0,1800,0.13,234.0,0.41,738.0,0.46,828.0,40.41,-105.08
Vail,"3""","63""Machine Groomed",152,10/33,Colorado,11570.0,8120.0,3450.0,31.0,193.0,5289,0.18,952.02,0.29,1533.81,0.53,2803.17,39.64,-106.36
Lookout Pass,"3""","17-67""Machine Groomed",43,3/5,Idaho,5650.0,4500.0,1150.0,4.0,34.0,540,0.2,108.0,0.5,270.0,0.3,162.0,47.47,-115.69
Copper,"2""","61-71""Packed Powder",105,12/24,Colorado,12313.0,9712.0,2601.0,22.0,127.0,2465,0.21,517.65,0.25,616.25,0.54,1331.1,39.46,-106.17
