Resort Name,72 Hour Snowfall,Base Depth,Trails open,Open lifts,state,summit,base,vertical,lifts,runs,acres,green_percent,green_acres,blue_percent,blue_acres,black_percent,black_acres,lat,lon
Arapahoe Basin,"16""","67""Spring Snow",116,9/9,Colorado,13050.0,10780.0,2270.0,7.0,105.0,900,0.1,90.0,0.3,270.0,0.6,540.0,39.72,-104.79
Big Sky,"14""","38-58""Packed Powder",107,13/36,Montana,11166.0,6800.0,4350.0,34.0,306.0,5800,0.15,870.0,0.25,1450.0,0.6,3480.0,45.29,-111.38
Loveland,"10""","67""Powder",86,7/10,Colorado,13010.0,10800.0,2210.0,10.0,93.0,1800,0.13,234.0,0.41,738.0,0.46,828.0,40.41,-105.08
Grand Targhee,"10""","117""Packed Powder",87,6/6,Wyoming,10000.0,7408.0,2419.0,5.0,72.0,3000,0.1,300.0,0.7,2100.0,0.2,600.0,43.74,-110.4
Lookout Pass,"5""","17-67""Machine Groomed",43,3/5,Idaho,5650.0,4500.0,1150.0,4.0,34.0,540,0.2,108.0,0.5,270.0,0.3,162.0,47.47,-115.69
Bear Valley,"4""","125-145""Variable Conditions",50,6/10,California,8500.0,6600.0,1900.0,9.0,75.0,1680,0.25,420.0,0.4,672.0,0.35,588.0,39.2,-122.44
Solitude,"4""","96""Variable Conditions",81,8/8,Utah,10035.0,7988.0,2047.0,7.0,65.0,1200,0.2,240.0,0.5,600.0,0.3,360.0,40.63,-111.59
