Resort Name,72 Hour Snowfall,Base Depth,Trails open,Open lifts,state,summit,base,vertical,lifts,runs,acres,green_percent,green_acres,blue_percent,blue_acres,black_percent,black_acres,lat,lon
Mt. Baker,"28""","115-135""Powder",36,7/10,Washington,5050.0,3500.0,1500.0,10.0,38.0,1000,0.24,240.0,0.45,450.0,0.31,310.0,48.78,-121.81
Killington,"27""","15-20""Powder",144,14/22,Vermont,4241.0,1165.0,3050.0,22.0,140.0,752,0.28,210.56,0.33,248.16,0.39,293.28,43.67,-72.78
Sugarbush,"24""","16-40""Powder",110,12/16,Vermont,4083.0,1483.0,2600.0,16.0,111.0,578,0.2,115.6,0.45,260.1,0.35,202.3,44.12,-72.83
Mad River Glen,"22""","8-18""Packed Powder",54,3/5,Vermont,3637.0,1600.0,2037.0,5.0,45.0,915,0.3,274.5,0.3,274.5,0.4,366.0,44.57,-72.57
Bolton Valley,"20""","24-36""Powder",65,5/6,Vermont,3150.0,2100.0,1704.0,6.0,71.0,165,0.32,52.8,0.36,59.4,0.32,52.8,44.42,-72.85
Attitash,"20""","18""Powder",37,6/8,New Hampshire ,2350.0,600.0,1750.0,11.0,76.0,310,0.2,62.0,0.47,145.7,0.33,102.3,44.09,-71.21
Jay Peak,"18""","15-35""Powder",74,6/9,Vermont,3968.0,1815.0,2153.0,9.0,78.0,385,0.2,77.0,0.4,154.0,0.4,154.0,44.97,-72.47
