Resort Name,72 Hour Snowfall,Base Depth,Trails open,Open lifts,state,summit,base,vertical,lifts,runs,acres,green_percent,green_acres,blue_percent,blue_acres,black_percent,black_acres,lat,lon
Mt. Hood Meadows,"12""","99-145""Machine Groomed",50,5/12,Oregon,7300.0,4523.0,2777.0,13.0,85.0,2150,0.15,322.5,0.5,1075.0,0.35,752.5,45.33,-121.66
Mt. Bachelor,"11""","24-94""Variable Conditions",37,2/15,Oregon,9065.0,6300.0,3365.0,14.0,71.0,3683,0.15,552.45,0.25,920.75,0.6,2209.8,43.99,-121.68
Winter Park,"7""","77-81""Spring Snow",75,6/25,Colorado,12060.0,9000.0,3060.0,24.0,142.0,3078,0.08,246.24,0.37,1138.86,0.55,1692.9,39.88,-105.75
Breckenridge,"1""","75""Variable Conditions",80,5/35,Colorado,12998.0,9600.0,3398.0,31.0,155.0,2358,0.14,330.12,0.31,730.98,0.55,1296.9,39.49,-106.03
Copper,"1""","57""Machine Groomed",42,4/24,Colorado,12313.0,9712.0,2601.0,22.0,127.0,2465,0.21,517.65,0.25,616.25,0.54,1331.1,39.46,-106.17
Loveland,"1""","65""Variable Conditions",86,7/10,Colorado,13010.0,10800.0,2210.0,10.0,93.0,1800,0.13,234.0,0.41,738.0,0.46,828.0,40.41,-105.08
