Resort Name,72 Hour Snowfall,Base Depth,Trails open,Open lifts,state,summit,base,vertical,lifts,runs,acres,green_percent,green_acres,blue_percent,blue_acres,black_percent,black_acres,lat,lon
Jackson Hole,"20""","42-118""Packed Powder",126,13/13,Wyoming,10450.0,6311.0,4139.0,12.0,116.0,2500,0.1,250.0,0.4,1000.0,0.5,1250.0,43.4799,-110.0
Snow King,"15""","51-66""Packed Powder",39,7/8,Wyoming,7808.0,6237.0,1571.0,5.0,31.0,400,0.15,60.0,0.25,100.0,0.6,240.0,43.46,-110.2
Beaver,"14""","92""",48,6/6,Utah,8800.0,7100.0,1700.0,5.0,47.0,828,0.25,207.0,0.4,331.2,0.35,289.8,41.97,-111.57
Alyeska,"14""","47-116""Powder",70,7/7,Alaska,3939.0,250.0,2500.0,9.0,73.0,1500,0.11,165.0,0.52,780.0,0.37,555.0,60.97,-149.11
Solitude,"13""","108""Powder",80,8/8,Utah,10035.0,7988.0,2047.0,7.0,65.0,1200,0.2,240.0,0.5,600.0,0.3,360.0,40.63,-111.59
Mt. Ashland,"12""","83-92""Powder",44,5/5,Oregon,7500.0,6350.0,1150.0,4.0,23.0,200,0.05,10.0,0.2,40.0,0.75,150.0,42.09,-122.72
Pebble Creek,"11""","46-90""Packed Powder",44,3/3,Idaho,8560.0,6300.0,2200.0,3.0,54.0,1100,0.12,132.0,0.35,385.0,0.53,583.0,42.74,-112.03
Eldora,"10""","34""Packed Powder",61,10/10,Colorado,10800.0,9200.0,1600.0,12.0,53.0,680,0.2,136.0,0.5,340.0,0.3,204.0,39.94,-105.56
