Resort Name,72 Hour Snowfall,Base Depth,Trails open,Open lifts,state,summit,base,vertical,lifts,runs,acres,green_percent,green_acres,blue_percent,blue_acres,black_percent,black_acres,lat,lon
Bolton Valley,"17""","30-36""Packed Powder",54,5/6,Vermont,3150.0,2100.0,1704.0,6.0,71.0,165,0.32,52.8,0.36,59.4,0.32,52.8,44.42,-72.85
Jay Peak,"16""","20-45""Powder",81,8/9,Vermont,3968.0,1815.0,2153.0,9.0,78.0,385,0.2,77.0,0.4,154.0,0.4,154.0,44.97,-72.47
Sunrise Park,"14""","68-72""Powder",50,4/8,Arizona ,1100.0,9200.0,1800.0,8.0,65.0,800,0.4,320.0,0.4,320.0,0.2,160.0,34.02,-109.53
Mad River Glen,"11""","8-18""Variable Conditions",51,3/5,Vermont,3637.0,1600.0,2037.0,5.0,45.0,915,0.3,274.5,0.3,274.5,0.4,366.0,44.57,-72.57
Pajarito,"10""","42""Powder",-,,New Mexico,10440.0,9000.0,1200.0,6.0,40.0,300,0.2,60.0,0.5,150.0,0.3,90.0,35.91,-106.14
Killington,"9""","17-24""Machine Groomed",140,13/22,Vermont,4241.0,1165.0,3050.0,22.0,140.0,752,0.28,210.56,0.33,248.16,0.39,293.28,43.67,-72.78
Sugarbush,"8""","16-40""Packed Powder",103,11/16,Vermont,4083.0,1483.0,2600.0,16.0,111.0,578,0.2,115.6,0.45,260.1,0.35,202.3,44.12,-72.83
Holiday Valley,"7""","2-36""Machine Groomed",4,1/13,New York,2250.0,1500.0,750.0,13.0,58.0,290,0.34,98.6,0.28,81.2,0.38,110.2,42.26,-78.68
