Resort Name,72 Hour Snowfall,Base Depth,Trails open,Open lifts,state,summit,base,vertical,lifts,runs,acres,green_percent,green_acres,blue_percent,blue_acres,black_percent,black_acres,lat,lon
Loveland,"7""","69""Packed Powder",86,7/10,Colorado,13010.0,10800.0,2210.0,10.0,93.0,1800,0.13,234.0,0.41,738.0,0.46,828.0,40.41,-105.08
Winter Park,"4""","76-80""",77,6/25,Colorado,12060.0,9000.0,3060.0,24.0,142.0,3078,0.08,246.24,0.37,1138.86,0.55,1692.9,39.88,-105.75
Copper,"3""","60-71""Packed Powder",119,12/24,Colorado,12313.0,9712.0,2601.0,22.0,127.0,2465,0.21,517.65,0.25,616.25,0.54,1331.1,39.46,-106.17
Breckenridge,"2""","67""Variable Conditions",95,7/35,Colorado,12998.0,9600.0,3398.0,31.0,155.0,2358,0.14,330.12,0.31,730.98,0.55,1296.9,39.49,-106.03
Arapahoe Basin,"2""","65""Spring Snow",120,8/9,Colorado,13050.0,10780.0,2270.0,7.0,105.0,900,0.1,90.0,0.3,270.0,0.6,540.0,39.72,-104.79
Jay Peak,"1""","20-30""Spring Snow",32,6/9,Vermont,3968.0,1815.0,2153.0,9.0,78.0,385,0.2,77.0,0.4,154.0,0.4,154.0,44.97,-72.47
Mt. Hood Meadows,"1""","105-142""Spring Snow",80,7/12,Oregon,7300.0,4523.0,2777.0,13.0,85.0,2150,0.15,322.5,0.5,1075.0,0.35,752.5,45.33,-121.66
